,City,Clouds,Country,Date,Humidity,Lat,Lng,Max Temp,Wind Speed
0,Avarua,100,CK,1591809884,73,-21.21,-159.78,77.0,11.41
1,Deputatsky,91,RU,1591809884,82,69.3,139.9,36.43,6.64
2,Mahébourg,75,MU,1591809884,78,-20.41,57.7,71.6,18.34
3,Saint-Philippe,20,RE,1591809884,73,-21.36,55.77,71.6,19.46
4,Ambilobe,0,MG,1591809884,74,-13.2,49.05,70.48,3.8
5,Chhor,0,PK,1591809884,46,25.52,69.77,95.56,19.53
6,Acarí,91,PE,1591809884,48,-15.43,-74.62,73.92,7.29
7,Ambon City,88,ID,1591809653,97,-3.7,128.18,80.01,8.55
8,Bektemir,0,UZ,1591809884,31,41.21,69.33,78.8,9.17
9,Rikitea,26,PF,1591809885,85,-23.12,-134.97,75.47,16.04
10,Ahipara,64,NZ,1591809885,76,-35.17,173.17,53.33,3.53
11,Punta Arenas,40,CL,1591809885,74,-53.15,-70.92,35.6,21.92
12,Kyaikkami,100,MM,1591809885,80,16.08,97.57,82.18,13.56
13,Port Macquarie,90,AU,1591809775,100,-31.43,152.92,60.8,3.36
14,Busselton,100,AU,1591809885,78,-33.65,115.33,60.01,19.13
15,Kavaratti,100,IN,1591809885,79,10.57,72.64,84.74,16.64
16,Changping,50,CN,1591809885,69,40.22,116.22,84.99,4.47
17,Elko,1,US,1591809816,26,41.0,-115.5,69.8,3.36
18,Roald,6,NO,1591809885,76,62.58,6.13,59.0,20.8
19,Karratha,49,AU,1591809885,75,-20.74,116.85,74.5,6.89
20,Flinders,91,AU,1591809885,93,-34.58,150.86,55.0,1.01
21,Methóni,40,GR,1591809885,44,36.82,21.7,78.8,6.93
22,Bredasdorp,32,ZA,1591809885,76,-34.53,20.04,53.6,18.81
23,Ushuaia,40,AR,1591809885,88,-54.8,-68.3,35.6,40.26
24,Thunder Bay,90,CA,1591809650,93,48.4,-89.32,62.6,14.99
25,East London,82,ZA,1591809885,32,-33.02,27.91,78.71,7.36
26,Cidreira,96,BR,1591809885,89,-30.18,-50.21,63.1,11.79
27,Santo Antônio do Içá,16,BR,1591809885,43,-3.1,-67.94,93.24,3.18
28,Saint Paul Harbor,1,US,1591809885,87,57.79,-152.41,48.2,3.36
29,Weston,20,US,1591809885,47,26.1,-80.4,93.99,1.01
30,Torbay,90,CA,1591809885,87,47.67,-52.73,48.99,18.34
31,Cabo San Lucas,5,MX,1591809885,78,22.89,-109.91,80.01,11.41
32,Atar,1,MR,1591809886,19,20.52,-13.05,103.51,14.18
33,Tawang Town,36,IN,1591809886,74,27.58,91.87,53.94,3.53
34,Port Keats,78,AU,1591809886,62,-14.25,129.55,72.16,6.69
35,Dikson,100,RU,1591809886,95,73.51,80.55,34.02,19.44
36,Puerto Ayora,40,EC,1591809886,61,-0.74,-90.35,80.6,14.99
37,Tessalit,36,ML,1591809886,7,20.2,1.01,110.53,8.46
38,Hilo,90,US,1591809611,88,19.73,-155.09,73.4,5.82
39,Skibbereen,75,IE,1591809886,66,51.55,-9.27,55.4,12.75
40,Arahal,37,ES,1591809886,34,37.19,-5.55,82.0,13.87
41,Pavlovsk,52,RU,1591809886,81,50.46,40.11,74.28,7.83
42,Cape Town,75,ZA,1591809696,71,-33.93,18.42,54.0,16.11
43,New Norfolk,100,AU,1591809886,87,-42.78,147.06,52.0,1.95
44,Acajutla,20,SV,1591809886,62,13.59,-89.83,86.0,3.85
45,George,20,ZA,1591809886,71,-33.96,22.46,53.6,12.75
46,Byron Bay,75,AU,1591809886,93,-28.65,153.62,62.6,5.82
47,Vaini,75,TO,1591809886,100,-21.2,-175.2,73.4,9.17
48,Codrington,97,AU,1591809886,81,-38.27,141.97,42.96,8.39
49,Hobart,90,AU,1591809830,66,-42.88,147.33,52.0,8.05
50,Touros,40,BR,1591809886,74,-5.2,-35.46,84.2,10.29
51,Lebu,99,CL,1591809886,84,-37.62,-73.65,54.66,17.11
52,Geraldton,90,AU,1591809887,64,-28.77,114.6,69.8,11.41
53,Huntingdon,100,GB,1591809887,84,52.33,-0.19,55.0,4.0
54,Nikolskoye,75,RU,1591809887,77,59.7,30.79,69.8,2.24
55,Chui,68,UY,1591809887,65,-33.7,-53.46,62.24,3.36
56,Port Hardy,90,CA,1591809887,87,50.7,-127.42,55.4,2.24
57,Bluff,99,NZ,1591809887,68,-46.6,168.33,53.01,10.0
58,Soyo,17,AO,1591809887,80,-6.13,12.37,76.33,12.06
59,San Patricio,75,MX,1591809887,74,19.22,-104.7,84.2,6.93
60,Butaritari,100,KI,1591809887,76,3.07,172.79,82.17,13.0
61,Cerro Largo,40,BR,1591809887,100,-28.15,-54.74,72.0,5.82
62,Castro,16,BR,1591809691,77,-24.79,-50.01,71.6,11.43
63,Carnarvon,0,AU,1591809887,63,-24.87,113.63,71.83,10.31
64,Kruisfontein,26,ZA,1591809887,47,-34.0,24.73,59.56,13.42
65,Klaksvík,75,FO,1591809887,62,62.23,-6.59,51.8,12.75
66,Comodoro Rivadavia,80,AR,1591809887,47,-45.87,-67.5,51.8,19.46
67,São Filipe,3,CV,1591809887,78,14.9,-24.5,77.25,9.71
68,Antalaha,55,MG,1591809887,79,-14.9,50.28,71.46,13.22
69,Tiksi,3,RU,1591809887,96,71.69,128.87,27.84,5.55
70,Salta,75,AR,1591809887,72,-24.79,-65.41,59.0,4.7
71,Tegul'det,100,RU,1591809887,96,57.31,88.17,50.38,4.47
72,Ýpsonas,0,CY,1591809887,83,34.69,32.96,73.4,14.99
73,Bengkulu,73,ID,1591809778,88,-3.8,102.27,78.24,3.62
74,Mataura,93,NZ,1591809888,68,-46.19,168.86,53.01,10.0
75,Thompson,90,CA,1591809888,81,55.74,-97.86,42.8,11.41
76,Tasiilaq,75,GL,1591809888,86,65.61,-37.64,37.4,39.15
77,Ribeira Grande,40,PT,1591809888,73,38.52,-28.7,69.8,6.93
78,Labuhan,67,ID,1591809888,83,-6.88,112.21,77.79,7.18
79,Nishihara,75,JP,1591809888,94,26.18,127.76,80.6,11.41
80,Boyolangu,98,ID,1591809888,87,-8.12,111.89,75.09,2.46
81,Ust-Kuyga,69,RU,1591809888,79,70.02,135.6,38.28,3.06
82,Hithadhoo,100,MV,1591809888,75,-0.6,73.08,84.06,13.71
83,Cyangugu,88,RW,1591809888,82,-2.48,28.91,61.38,2.35
84,Atuona,20,PF,1591809888,78,-9.8,-139.03,80.33,20.69
85,Barrow,90,US,1591809661,92,71.29,-156.79,30.2,6.93
86,Sanming,90,CN,1591809888,86,26.25,117.62,73.17,2.44
87,George Town,20,MY,1591809888,88,5.41,100.34,82.4,2.24
88,Barabash,90,RU,1591809888,100,43.2,131.48,64.4,2.24
89,Chokurdakh,9,RU,1591809888,86,70.63,147.92,34.14,10.92
90,Juba,92,SS,1591809699,79,4.85,31.58,76.53,4.03
91,Albany,88,US,1591809888,53,42.6,-73.97,81.0,1.01
92,Malanje,0,AO,1591809888,37,-9.54,16.34,70.66,2.1
93,Baikunthpur,37,IN,1591809888,36,23.25,82.55,89.35,3.15
94,Wanning,100,CN,1591809888,89,18.8,110.4,81.57,9.84
95,Princeton,20,US,1591809888,62,25.54,-80.41,91.4,9.17
96,Gemeente Wageningen,90,NL,1591809888,68,51.97,5.67,66.0,10.29
97,Alofi,93,NU,1591809715,94,-19.06,-169.92,71.6,1.12
98,Yellowknife,90,CA,1591809652,75,62.46,-114.35,46.99,12.75
99,Lompoc,0,US,1591809711,31,34.64,-120.46,86.0,2.1
100,Canmore,1,CA,1591809718,36,51.08,-115.35,62.6,11.41
101,Moranbah,10,AU,1591809889,91,-22.0,148.05,58.46,8.12
102,Dakoro,10,NE,1591809889,22,14.51,6.76,100.72,2.33
103,Hermanus,80,ZA,1591809688,84,-34.42,19.23,48.0,13.0
104,Izhma,100,RU,1591809889,90,65.01,53.91,61.45,5.59
105,Faanui,26,PF,1591809889,83,-16.48,-151.75,79.81,20.62
106,Souillac,75,MU,1591809889,78,-20.52,57.52,71.6,18.34
107,Alice Springs,42,AU,1591809889,56,-23.7,133.88,52.0,3.36
108,Lüderitz,45,NA,1591809889,93,-26.65,15.16,57.2,6.93
109,Qaanaaq,5,GL,1591809889,78,77.48,-69.36,36.32,2.44
110,Bethel,20,US,1591809889,61,41.37,-73.41,82.99,10.29
111,Vila Velha,0,BR,1591809867,52,-20.33,-40.29,87.8,11.41
112,Esperance,98,AU,1591809889,41,-33.87,121.9,60.8,14.99
113,Camacha,20,PT,1591809889,64,33.08,-16.33,68.0,13.87
114,Qax,75,AZ,1591809889,44,41.42,46.92,80.6,6.93
115,Along,2,IN,1591809889,86,28.17,94.77,73.31,1.77
116,Taoudenni,9,ML,1591809664,12,22.68,-3.98,108.64,12.3
117,Onega,98,RU,1591809890,85,63.91,38.14,53.47,10.69
118,Atasū,33,KZ,1591809890,41,48.68,71.64,65.97,8.25
119,Páchni,20,GR,1591809890,65,41.3,24.9,78.8,4.7
120,Chara,58,RU,1591809890,82,56.91,118.26,41.76,1.28
121,Griffith,1,US,1591809890,74,41.53,-87.42,84.0,18.52
122,Manavālakurichi,75,IN,1591809890,83,8.13,77.3,82.4,8.05
123,Alice,40,US,1591809890,35,27.75,-98.07,89.6,21.92
124,Luknovo,49,RU,1591809890,74,56.2,42.04,68.68,1.99
125,Paka,93,MY,1591809890,94,4.64,103.44,75.2,4.7
126,Cabedelo,75,BR,1591809890,88,-6.98,-34.83,78.8,10.29
127,Norman Wells,75,CA,1591809890,66,65.28,-126.83,55.4,14.99
128,Wamba,83,NG,1591809890,62,8.93,8.6,84.49,5.23
129,Nanortalik,100,GL,1591809890,88,60.14,-45.24,40.08,15.75
130,Pozo Colorado,0,PY,1591809890,43,-23.49,-58.8,90.73,13.0
131,Cayenne,4,GF,1591809709,58,4.93,-52.33,87.8,8.05
132,Galesong,20,ID,1591809890,100,-5.32,119.37,75.2,2.24
133,Saskylakh,0,RU,1591809890,58,71.92,114.08,44.35,14.63
134,Nayoro,100,JP,1591809890,84,44.35,142.46,60.12,3.38
135,Aklavik,90,CA,1591809891,93,68.22,-135.01,41.0,3.36
136,Port Alfred,64,ZA,1591809891,68,-33.59,26.89,64.99,5.01
137,Talcahuano,90,CL,1591809891,87,-36.72,-73.12,53.6,10.29
138,Jamestown,75,US,1591809873,65,42.1,-79.24,87.01,11.41
139,Aksu,84,CN,1591809891,34,41.12,80.26,73.15,7.11
140,Dīr,23,PK,1591809891,46,35.21,71.88,68.54,6.46
141,Sulęcin,75,PL,1591809891,68,52.44,15.12,66.99,11.41
142,Bonavista,90,CA,1591809891,83,48.65,-53.11,43.0,1.99
143,Nabire,100,ID,1591809891,89,-3.37,135.48,75.61,4.34
144,Bonthe,83,SL,1591809891,75,7.53,-12.51,83.44,11.34
145,Hobyo,19,SO,1591809891,64,5.35,48.53,82.71,25.99
146,Devils Lake,40,US,1591809891,52,48.11,-98.87,64.4,18.34
147,Mago,0,RU,1591809891,93,53.25,140.18,40.6,1.72
148,Bandarbeyla,48,SO,1591809891,66,9.49,50.81,82.69,28.23
149,Fairbanks,1,US,1591809739,58,64.84,-147.72,64.0,2.73
150,Rome,40,US,1591809680,61,43.21,-75.46,79.0,13.87
151,Mossamedes,1,AO,1591809891,72,-15.2,12.15,68.63,16.62
152,Tura,100,IN,1591809891,86,25.52,90.22,77.5,3.78
153,Vardø,40,NO,1591809680,71,70.37,31.11,48.2,26.4
154,Mufumbwe,13,ZM,1591809891,46,-13.68,24.8,62.74,2.71
155,Graaff-Reinet,0,ZA,1591809891,47,-32.25,24.53,59.0,5.01
156,Garissa,85,KE,1591809891,47,-0.45,39.64,81.97,15.9
157,Erenhot,49,CN,1591809892,23,43.65,111.98,68.34,11.83
158,Itoman,20,JP,1591809892,94,26.12,127.67,80.6,11.41
159,Narsaq,75,GL,1591809892,75,60.92,-46.05,42.8,9.17
160,Rabaul,98,PG,1591809892,79,-4.2,152.17,79.56,6.13
161,Tefé,40,BR,1591809892,74,-3.35,-64.71,87.8,3.36
162,Bilibino,100,RU,1591809892,70,68.05,166.44,56.39,3.31
163,Manggar,35,ID,1591809892,77,-2.88,108.27,82.87,12.95
164,Bonfim,78,BR,1591809892,62,3.08,-59.95,86.7,3.15
165,Udachny,2,RU,1591809892,41,66.42,112.4,41.0,2.24
166,Kampong Cham,100,KH,1591809892,92,11.99,105.46,77.2,7.74
167,Ciudad Bolivar,64,VE,1591809892,48,8.12,-63.55,91.58,6.33
168,Ponta do Sol,40,PT,1591809892,56,32.67,-17.1,69.8,12.75
169,Hervey Bay,23,AU,1591809892,97,-25.3,152.85,64.0,5.99
170,Badvel,99,IN,1591809892,82,14.75,79.05,78.37,8.12
171,Constitución,25,CL,1591809892,58,-35.33,-72.42,56.21,5.37
172,Dingle,100,PH,1591809892,85,11.0,122.67,78.94,3.29
173,Cherskiy,100,RU,1591809892,80,68.75,161.3,40.03,7.25
174,Arraial do Cabo,75,BR,1591809627,74,-22.97,-42.03,82.4,4.7
175,Takoradze,100,GH,1591809859,83,4.88,-1.76,80.22,13.69
176,Upernavik,0,GL,1591809892,89,72.79,-56.15,33.94,13.04
177,Itapirapuã,0,BR,1591809892,34,-15.82,-50.61,89.64,7.0
178,Tuktoyaktuk,90,CA,1591809892,93,69.45,-133.04,35.6,5.82
179,Tezu,25,IN,1591809892,78,27.92,96.17,76.71,4.45
180,Samarai,100,PG,1591809784,87,-10.62,150.67,79.21,10.47
181,Aswān,0,EG,1591809893,9,24.09,32.91,98.44,10.56
182,Caravelas,1,BR,1591809893,61,-17.71,-39.25,82.51,7.78
183,Bossangoa,53,CF,1591809893,85,6.49,17.46,74.35,3.04
184,Saquena,23,PE,1591809783,42,-4.67,-73.52,95.0,1.7
185,Kaitangata,100,NZ,1591809893,45,-46.28,169.85,53.01,6.38
186,Mount Gambier,90,AU,1591809893,93,-37.83,140.77,44.6,6.93
187,Kearney,1,US,1591809619,42,40.7,-99.08,68.0,21.92
188,Santa Maria,90,BR,1591809678,82,-29.68,-53.81,62.6,10.29
189,Yulara,72,AU,1591809893,38,-25.24,130.99,42.8,3.36
190,Prudy,16,RU,1591809893,85,57.57,46.27,65.16,3.74
191,Cravo Norte,99,CO,1591809893,73,6.3,-70.2,84.79,2.8
192,Ancud,90,CL,1591809893,100,-41.87,-73.82,54.0,8.05
193,Boa Vista,75,BR,1591809843,55,2.82,-60.67,86.0,4.7
194,Mana,19,GF,1591809893,78,5.66,-53.78,82.49,7.72
195,Sumenep,60,ID,1591809893,82,-7.02,113.87,78.42,8.19
196,Vao,32,NC,1591809893,79,-22.67,167.48,71.51,26.51
197,Te Anau,80,NZ,1591809893,77,-45.42,167.72,48.78,8.46
198,Conde,75,BR,1591809893,88,-7.26,-34.91,78.8,10.29
199,Tsimmerbude,75,RU,1591809893,88,54.67,20.13,64.4,6.71
200,Poronaysk,40,RU,1591809893,65,49.22,143.12,56.64,5.03
201,Bambous Virieux,75,MU,1591809893,78,-20.34,57.76,71.6,18.34
202,Aleksandrovskoye,40,RU,1591809893,51,44.71,43.0,80.6,6.71
203,Klamath Falls,1,US,1591809893,52,42.22,-121.78,68.0,4.7
204,Shimoda,74,JP,1591809894,92,34.67,138.95,68.0,12.46
205,Narón,32,ES,1591809894,67,43.52,-8.15,62.6,9.17
206,Luanda,20,AO,1591809894,69,-8.84,13.23,77.0,11.41
207,Wanaka,77,NZ,1591809894,78,-44.7,169.15,43.36,7.78
208,Ojinaga,1,MX,1591809894,8,29.57,-104.42,89.6,5.82
209,Burnie,100,AU,1591809894,91,-41.07,145.92,51.01,7.0
210,Mt. Pleasant,1,US,1591809707,74,32.79,-79.86,90.0,10.29
211,Kautokeino,10,NO,1591809894,43,69.01,23.04,53.46,15.57
212,Voh,22,NC,1591809894,86,-20.97,164.7,68.36,6.02
213,Slobidka,34,UA,1591809894,60,47.89,29.35,78.44,1.12
214,Hamilton,90,US,1591809763,74,39.18,-84.53,87.01,16.11
215,Nuevo Progreso,99,MX,1591809894,66,23.17,-97.95,93.0,7.0
216,Sambava,57,MG,1591809894,77,-14.27,50.17,72.81,17.38
217,Kavieng,100,PG,1591809784,74,-2.57,150.8,82.81,3.0
218,Lincoln,49,US,1591809894,49,40.8,-96.67,71.01,10.0
219,Mastic Beach,75,US,1591809625,64,40.77,-72.85,79.0,5.82
220,Anadyr,0,RU,1591809894,70,64.75,177.48,48.2,8.95
221,Talnakh,75,RU,1591809894,93,69.49,88.4,42.8,15.66
222,Makakilo City,20,US,1591809894,83,21.35,-158.09,77.0,17.13
223,Okitipupa,100,NG,1591809895,93,6.5,4.78,76.68,4.99
224,Jampur,0,PK,1591809895,16,29.64,70.6,105.13,9.1
225,Tuatapere,98,NZ,1591809895,68,-46.13,167.68,53.01,10.0
226,Mercedes,0,AR,1591809895,71,-34.65,-59.43,70.0,1.99
227,Olafsvik,59,IS,1591809895,71,64.89,-23.71,50.77,3.47
228,Jaciara,0,BR,1591809720,41,-15.97,-54.97,89.94,7.05
229,Laguna,1,US,1591809870,41,38.42,-121.42,82.99,3.36
230,Mar del Plata,46,AR,1591809648,55,-38.0,-57.56,64.0,11.41
231,Panevezys,75,LT,1591809895,82,55.73,24.35,68.0,12.75
232,Longyearbyen,20,SJ,1591809783,75,78.22,15.64,42.8,4.7
233,Dali,86,CN,1591809895,83,25.7,100.18,65.16,6.31
234,Kewanee,33,US,1591809621,66,41.25,-89.92,72.0,1.99
235,Flin Flon,75,CA,1591809895,67,54.77,-101.86,59.0,4.7
236,Sakakah,0,SA,1591809755,8,29.97,40.21,96.8,14.99
237,Provideniya,20,RU,1591809895,49,64.38,-173.3,51.55,6.33
238,Fortuna,1,US,1591809895,77,40.6,-124.16,71.01,5.82
239,Halifax,68,CA,1591809688,33,44.65,-63.57,63.0,1.99
240,Isiro,100,CD,1591809895,98,2.77,27.62,68.2,1.88
241,Jumla,41,NP,1591809895,68,29.27,82.18,59.7,1.59
242,Pacasmayo,87,PE,1591809895,66,-7.4,-79.57,71.02,15.43
243,Dunn,90,US,1591809895,76,44.95,-91.88,60.01,16.11
244,Mizdah,98,LY,1591809895,37,31.45,12.98,82.71,8.21
245,Vagay,31,RU,1591809895,56,57.94,69.02,70.56,4.92
246,Naze,90,JP,1591809895,94,28.37,129.48,78.8,5.82
247,Tagusao,100,PH,1591809895,77,9.19,117.81,81.41,3.96
248,Krasnoslobodsk,65,RU,1591809896,42,48.71,44.57,80.6,11.18
249,Pisco,40,PE,1591809896,77,-13.7,-76.22,68.0,6.93
250,Kiryat Gat,0,IL,1591809896,65,31.61,34.76,77.0,6.42
251,Half Moon Bay,20,US,1591809896,72,37.46,-122.43,71.01,4.7
252,El Tigre,86,VE,1591809896,52,8.89,-64.25,88.25,7.67
253,Anchorage,75,US,1591809896,76,61.22,-149.9,54.0,3.36
254,Maebaru-chūō,90,JP,1591809896,88,33.55,130.2,79.0,11.41
255,Otradnoye,75,RU,1591809896,77,59.78,30.82,69.8,2.24
256,Nizhnyaya Salda,4,RU,1591809896,57,58.08,60.72,69.24,2.44
257,Arganil,92,PT,1591809896,58,40.22,-8.05,69.01,10.0
258,Ucluelet,90,CA,1591809896,93,48.93,-125.55,55.99,13.87
259,Whitehorse,75,CA,1591809896,62,60.72,-135.05,52.0,5.82
260,Bela,22,IN,1591809896,27,25.93,81.98,99.82,9.08
261,Severo-Kuril'sk,100,RU,1591809896,89,50.68,156.12,42.48,9.46
262,Namie,0,JP,1591809896,84,37.48,141.0,72.0,6.85
263,Mareeba,90,AU,1591809896,77,-17.0,145.43,69.8,8.05
264,Gizo Government Station,31,SB,1591809896,73,-8.1,156.84,82.44,2.53
265,Solnechnyy,98,RU,1591809896,59,50.72,136.63,59.36,1.66
266,Yangi Marg`ilon,100,UZ,1591809896,46,40.43,71.72,71.6,9.17
267,Khatanga,100,RU,1591809896,71,71.97,102.5,51.8,9.4
268,Nyurba,100,RU,1591809896,85,63.28,118.33,40.3,5.26
269,Mayo,1,US,1591809897,78,38.89,-76.51,87.8,14.99
270,Santa Lucía,40,ES,1591809897,64,27.91,-15.54,73.4,19.46
271,Rafrāf,20,TN,1591809792,38,37.19,10.18,73.4,16.11
272,Isangel,49,VU,1591809897,79,-19.55,169.27,73.62,17.65
273,Nago,20,JP,1591809897,88,26.59,127.98,80.6,10.29
274,Makkah al Mukarramah,0,SA,1591809897,23,21.43,39.83,96.17,8.41
275,Leningradskiy,32,RU,1591809897,47,69.38,178.42,51.3,3.76
276,Tabory,0,RU,1591809897,59,58.52,64.55,68.45,3.11
277,Portland,75,US,1591809687,82,45.52,-122.68,68.0,5.82
278,Asău,59,RO,1591809897,84,46.43,26.4,63.0,1.1
279,Kandrian,100,PG,1591809784,88,-6.22,149.55,77.36,2.75
280,Baruun-Urt,8,MN,1591809897,36,46.68,113.28,59.94,7.0
281,San Vicente,62,AR,1591809897,97,-26.62,-54.13,71.53,6.96
282,Ostrovnoy,63,RU,1591809897,63,68.05,39.51,43.65,6.73
283,Tiznit Province,6,MA,1591809897,58,29.58,-9.5,68.83,10.65
284,Maroantsetra,90,MG,1591809897,80,-15.43,49.73,70.32,8.28
285,Dudinka,75,RU,1591809897,93,69.41,86.18,42.8,15.66
286,Lødingen,11,NO,1591809897,54,68.41,16.0,53.6,13.87
287,Brits,0,ZA,1591809898,44,-25.63,27.78,63.0,4.7
288,Madawaska,1,US,1591809898,30,47.36,-68.33,72.0,13.87
289,Golub-Dobrzyń,65,PL,1591809898,48,53.11,19.05,66.0,10.29
290,Savalou,67,BJ,1591809898,64,7.93,1.98,85.93,7.9
291,Tamiahua,73,MX,1591809898,72,21.27,-97.45,87.1,7.54
292,Casalmaggiore,40,IT,1591809898,94,44.99,10.42,70.0,6.93
293,Tautira,75,PF,1591809898,83,-17.73,-149.15,75.2,3.36
294,Muisne,75,EC,1591809898,83,0.6,-80.03,80.6,3.36
295,Penzance,75,GB,1591809898,93,50.12,-5.54,55.4,8.05
296,Chicama,80,PE,1591809898,56,-7.84,-79.15,74.21,10.27
297,Taksimo,66,RU,1591809883,76,56.34,114.88,45.32,3.18
298,Starokorsunskaya,15,RU,1591809898,61,45.06,39.32,84.99,6.71
299,Hong Kong,76,HK,1591809846,79,22.29,114.16,84.0,4.0
300,Madison,40,US,1591809898,58,34.73,-86.57,89.6,17.22
301,Miraflores,40,MX,1591809898,41,19.22,-98.81,77.0,13.87
302,Kaili,100,ID,1591809898,95,-3.46,120.21,68.68,0.72
303,Lagoa,90,PT,1591809898,84,39.05,-27.98,64.56,16.67
304,Bay Roberts,100,CA,1591809898,97,47.6,-53.26,48.99,7.0
305,Farah,0,AF,1591809898,18,32.5,62.5,75.04,8.34
306,Sobolevo,94,RU,1591809898,83,54.43,31.9,74.55,7.52
307,Airai,93,TL,1591809898,95,-8.93,125.41,56.89,3.65
308,Athabasca,1,CA,1591809898,51,54.72,-113.29,64.81,10.96
309,Izmaylovo,38,RU,1591809899,91,53.72,47.25,64.22,5.14
310,Sangmélima,99,CM,1591809899,93,2.93,11.98,72.23,2.8
311,Sitka,90,US,1591809899,62,57.05,-135.33,55.4,8.05
312,Kangaatsiaq,100,GL,1591809899,78,68.31,-53.46,40.86,20.4
313,Hasaki,75,JP,1591809899,83,35.73,140.83,75.0,8.05
314,Najrān,92,SA,1591809899,19,17.49,44.13,89.6,2.24
315,Ergani,40,TR,1591809899,27,38.27,39.76,82.4,8.05
316,Haradok,100,BY,1591809899,85,55.46,29.98,74.34,5.12
317,Quatre Cocos,75,MU,1591809899,78,-20.21,57.76,71.6,18.34
318,Ilulissat,75,GL,1591809669,37,69.22,-51.1,53.6,19.46
319,Hakui,72,JP,1591809899,90,36.88,136.78,73.99,2.62
320,Likasi,38,CD,1591809899,52,-10.98,26.73,61.38,1.68
321,Ondangwa,0,NA,1591809899,23,-17.92,15.95,73.4,5.88
322,Bom Jesus,23,BR,1591809899,47,-9.07,-44.36,88.09,6.4
323,Reutlingen,100,DE,1591809899,91,48.49,9.2,54.0,4.32
324,Province of Trapani,20,IT,1591809870,68,37.83,12.67,71.6,8.05
325,Zárate,2,AR,1591809899,71,-34.1,-59.03,70.0,1.99
326,Kiama,92,AU,1591809899,94,-34.68,150.87,55.0,9.98
327,Yerbogachën,91,RU,1591809884,72,61.28,108.01,49.01,3.38
328,Kapaa,90,US,1591809900,83,22.08,-159.32,77.0,16.11
329,Imbituba,75,BR,1591809900,93,-28.24,-48.67,66.2,3.36
330,Beloha,0,MG,1591809900,67,-25.17,45.05,67.95,11.65
331,Rassvet,25,RU,1591809900,67,46.83,40.75,75.65,5.84
332,Ajdabiya,31,LY,1591809900,48,30.76,20.23,80.04,18.88
333,North Myrtle Beach,40,US,1591809738,83,33.82,-78.68,87.01,13.87
334,Tucumã,97,BR,1591809900,91,-0.18,-50.05,77.72,5.84
335,Katra,44,IN,1591809900,41,32.98,74.95,81.48,10.18
336,Adrar,0,MR,1591809900,18,20.5,-10.07,101.52,9.35
337,Katsuura,75,JP,1591809900,94,35.13,140.3,75.0,12.75
338,Pochutla,75,MX,1591809900,62,15.74,-96.47,87.8,5.12
339,Coquimbo,95,CL,1591809900,67,-29.95,-71.34,59.0,6.93
340,Mfou,40,CM,1591809900,83,3.72,11.64,78.8,4.7
341,Kankaanpää,0,FI,1591809900,45,61.8,22.42,72.0,11.41
342,Clyde River,90,CA,1591809900,93,70.47,-68.59,32.0,14.99
343,Auki,24,SB,1591809900,82,-8.77,160.7,78.66,3.4
344,San Nicolas,98,PH,1591809900,75,18.17,120.6,81.43,5.1
345,Salinas,1,US,1591809828,49,36.68,-121.66,73.99,3.89
346,Basco,70,PH,1591809901,81,20.45,121.97,84.07,15.17
347,Acapulco de Juárez,5,MX,1591809840,74,16.86,-99.89,84.2,9.17
348,La Santisima Trinidad,20,BO,1591809901,66,-14.83,-64.9,87.8,9.17
349,Ruska Poliana,0,UA,1591809901,73,49.42,31.92,75.67,7.16
350,Bac Lieu,100,VN,1591809901,78,9.29,105.72,82.51,5.53
351,Bhīmunipatnam,75,IN,1591809901,94,17.88,83.43,78.8,4.7
352,Bosaso,7,SO,1591809901,39,11.28,49.18,94.64,4.5
353,Praia,20,CV,1591809901,69,14.92,-23.51,82.4,5.82
354,Usinsk,100,RU,1591809901,53,65.99,57.53,61.25,8.9
355,Kinkala,40,CG,1591809901,69,-4.36,14.76,80.6,5.82
356,Gornyy,64,RU,1591809901,96,55.12,83.91,47.1,3.24
357,Vuktyl,100,RU,1591809901,76,63.86,57.31,68.92,4.7
358,Dogondoutchi,26,NE,1591809901,23,13.64,4.03,101.28,4.76
359,Port Elizabeth,2,ZA,1591809602,59,-33.92,25.57,64.4,10.29
360,Sironj,55,IN,1591809901,35,24.1,77.7,92.3,9.17
361,Henties Bay,3,NA,1591809902,90,-22.12,14.28,60.01,8.77
362,Hailar,49,CN,1591809902,87,49.2,119.7,50.9,9.08
363,Leninskoye,100,RU,1591809902,96,47.94,132.62,58.77,6.4
364,Grafton,1,US,1591809902,49,42.21,-71.69,79.0,8.05
365,Yenagoa,100,NG,1591809902,83,4.92,6.26,80.29,5.99
366,Prince Rupert,1,CA,1591809902,71,54.32,-130.32,55.4,8.05
367,Channel-Port aux Basques,0,CA,1591809902,65,47.57,-59.14,47.32,14.47
368,Kalmunai,100,LK,1591809902,73,7.42,81.82,83.66,5.53
369,Marzuq,48,YE,1591809902,22,14.4,46.47,89.44,0.27
370,Katobu,82,ID,1591809902,92,-4.94,122.53,74.03,3.13
371,Kamenka,66,RU,1591809902,59,51.32,42.77,75.99,3.0
372,Turukhansk,100,RU,1591809902,88,65.82,87.98,57.54,18.48
373,Inírida,64,CO,1591809902,60,3.87,-67.92,89.11,2.55
374,Assiut,0,EG,1591809697,18,27.18,31.18,102.2,12.75
375,Russell,40,US,1591809750,66,32.35,-85.2,87.8,11.41
376,Iqaluit,75,CA,1591809902,69,63.75,-68.51,37.4,23.04
377,Biharkeresztes,20,HU,1591809903,64,47.13,21.72,72.0,4.7
378,Gejiu,99,CN,1591809903,100,23.31,103.16,59.86,2.35
379,São João da Barra,3,BR,1591809800,51,-21.64,-41.05,84.2,9.17
380,Kungurtug,28,RU,1591809903,90,50.6,97.52,33.93,1.74
381,Maturin,67,VE,1591809903,67,9.75,-63.18,86.58,7.2
382,Phek,87,IN,1591809903,100,25.67,94.5,62.4,2.17
383,Lata,84,PT,1591809903,58,40.16,-8.33,69.01,10.0
384,Tarakan,99,ID,1591809903,80,3.3,117.63,79.77,6.15
385,Road Town,40,VG,1591809903,66,18.42,-64.62,87.8,8.05
386,Kirakira,80,SB,1591809903,78,-10.45,161.92,79.65,6.71
387,Mitú,15,CO,1591809903,46,1.2,-70.17,91.47,3.44
388,Puerto del Rosario,20,ES,1591809903,60,28.5,-13.86,75.2,12.75
389,Tiarei,75,PF,1591809903,83,-17.53,-149.33,75.2,3.36
390,Pundaguitan,100,PH,1591809903,77,6.37,126.17,82.71,9.15
391,Valley City,40,US,1591809903,55,46.92,-98.0,64.4,21.92
392,Wołów,75,PL,1591809904,68,51.34,16.64,66.99,5.82
393,Belyy Yar,20,RU,1591809904,93,53.6,91.39,44.6,4.47
394,Kushima,75,JP,1591809904,83,31.46,131.23,75.2,11.41
395,Aripuanã,0,BR,1591809904,37,-9.17,-60.63,92.23,3.65
396,Pitimbu,75,BR,1591809904,88,-7.47,-34.81,78.8,10.29
397,Vila Franca do Campo,40,PT,1591809904,82,37.72,-25.43,64.4,12.75
398,Yar-Sale,72,RU,1591809904,51,66.83,70.83,47.8,15.99
399,Iranshahr,40,IR,1591809904,17,27.2,60.68,102.2,4.7
400,San Cristobal,40,VE,1591809904,65,7.77,-72.22,82.4,18.34
401,Punta Cardon,95,VE,1591809904,68,11.66,-70.22,86.02,15.55
402,Den Chai,100,TH,1591809904,90,17.98,100.05,76.66,2.42
403,Cascais,20,PT,1591809904,59,38.7,-9.42,69.01,24.16
404,Sørland,0,NO,1591809904,70,67.67,12.69,48.2,19.46
405,Moose Factory,90,CA,1591809904,82,51.26,-80.61,60.8,9.17
406,Coari,7,BR,1591809904,47,-4.08,-63.14,91.27,2.93
407,Wundanyi,43,KE,1591809904,84,-3.4,38.36,61.83,7.96
408,Lithgow,95,AU,1591809904,92,-33.48,150.15,46.99,0.45
409,Tralee,40,IE,1591809904,76,52.27,-9.7,53.6,12.75
410,Nosy Varika,27,MG,1591809905,81,-20.58,48.53,68.74,6.46
411,Changtu,0,CN,1591809905,82,42.78,124.1,55.0,6.76
412,Glossop,84,GB,1591809639,77,53.44,-1.95,59.0,1.99
413,Mount Isa,0,AU,1591809787,39,-20.73,139.5,64.4,6.93
414,Raudeberg,20,NO,1591809905,67,61.99,5.14,68.0,8.05
415,Yueyang,2,CN,1591809905,92,29.33,113.09,74.01,2.01
416,Quelimane,4,MZ,1591809905,83,-17.88,36.89,73.4,8.05
417,Pangody,70,RU,1591809905,47,65.85,74.49,50.54,17.05
418,Aljezur,0,PT,1591809905,47,37.32,-8.8,75.99,15.97
419,Kabalo,59,CD,1591809905,35,-6.05,26.92,80.2,3.27
420,Tarrafal,20,CV,1591809905,69,15.28,-23.77,82.4,5.82
421,Vijāpur,1,IN,1591809905,55,23.57,72.75,89.44,3.71
422,Belaya Gora,99,RU,1591809905,65,68.53,146.42,42.35,12.08
423,Pahlgām,31,IN,1591809905,53,34.03,75.33,55.13,4.29
424,Gornopravdinsk,0,RU,1591809905,51,60.05,69.9,70.5,6.58
425,Sangar,43,RU,1591809905,81,63.92,127.47,48.52,3.58
426,Wuzhou,98,CN,1591809905,94,23.48,111.32,77.25,2.3
427,Kloulklubed,75,PW,1591809905,83,7.04,134.26,80.6,3.36
428,North Bend,90,US,1591809905,100,43.41,-124.22,68.0,10.29
429,Āsmār,1,AF,1591809905,43,35.03,71.36,75.9,2.8
430,Nattam,100,IN,1591809906,65,10.23,78.23,83.03,2.01
431,Haines Junction,100,CA,1591809906,40,60.75,-137.51,54.86,5.82
432,Palu,62,ID,1591809906,82,-0.89,119.87,76.62,2.35
433,Balotra,2,IN,1591809906,41,25.83,72.23,95.68,16.31
434,Socorro,5,US,1591809753,7,31.65,-106.3,84.0,9.17
435,Derzhavīnsk,34,KZ,1591809906,46,51.1,66.32,73.74,7.78
436,Gamba,52,GA,1591809906,85,-2.65,10.0,75.81,8.72
437,Puerto El Triunfo,20,SV,1591809906,70,13.28,-88.55,87.8,6.93
438,Sanāwad,75,IN,1591809906,74,22.18,76.07,78.8,7.23
439,Ngunguru,77,NZ,1591809906,93,-35.62,174.5,48.99,4.0
440,La Asuncion,83,VE,1591809906,58,11.03,-63.86,87.8,10.29
441,Marsh Harbour,34,BS,1591809906,80,26.54,-77.06,79.92,17.29
442,Nuuk,75,GL,1591809906,93,64.18,-51.72,39.2,11.41
443,Umm Kaddadah,99,SD,1591809906,23,13.6,26.69,96.49,7.76
444,Asha,83,RU,1591809906,92,55.0,57.27,61.45,4.74
445,Tanout,30,NE,1591809906,20,14.97,8.89,100.02,4.52
446,Alhama de Murcia,65,ES,1591809906,38,37.85,-1.43,82.99,8.99
447,Kajiado,75,KE,1591809607,82,-1.85,36.78,64.4,10.29
448,Tynda,7,RU,1591809906,88,55.17,124.72,44.71,3.04
449,Saint-Joseph,20,RE,1591809769,73,-21.37,55.62,69.8,19.46
450,Orlea,75,RO,1591809907,64,43.75,24.38,71.6,9.17
451,Minador do Negrão,62,BR,1591809907,64,-9.31,-36.86,82.58,11.18
452,Zihuatanejo,5,MX,1591809907,62,17.63,-101.55,86.0,11.41
453,Värnamo,26,SE,1591809907,42,57.19,14.04,70.0,1.01
454,Maceió,40,BR,1591809665,66,-9.67,-35.74,84.2,13.87
455,Dinguiraye,50,GN,1591809907,42,11.3,-10.72,92.14,6.85
456,Pevek,41,RU,1591809907,89,69.7,170.31,34.95,11.65
457,Tadine,24,NC,1591809907,80,-21.55,167.88,71.49,18.61
458,Bathsheba,40,BB,1591809907,66,13.22,-59.52,86.0,13.87
459,Sandata,38,RU,1591809907,54,46.27,41.76,77.54,7.16
460,Vestmanna,49,FO,1591809907,62,62.16,-7.17,51.8,12.75
461,Dawlatabad,0,AF,1591809907,15,36.41,64.91,81.54,9.8
462,Guerrero Negro,0,MX,1591809907,18,27.98,-114.06,85.26,3.65
463,Berdigestyakh,81,RU,1591809907,91,62.1,126.7,48.31,4.27
464,Alta Floresta,75,BR,1591809907,49,-9.88,-56.09,89.6,8.05
465,Hofn,20,IS,1591809907,71,64.25,-15.21,57.2,2.24
466,Münster,20,DE,1591809907,68,51.96,7.63,64.99,5.82
467,Kumul,49,CN,1591809908,19,42.8,93.45,76.32,16.96
468,Simões,5,BR,1591809908,50,-7.6,-40.82,86.29,10.8
469,Santa Marta,75,CO,1591809908,78,11.24,-74.2,82.4,9.17
470,Qandala,12,SO,1591809908,47,11.47,49.87,93.16,2.06
471,Brae,2,GB,1591809908,66,60.4,-1.35,51.8,10.29
472,Buchanan,75,LR,1591809908,70,5.88,-10.05,84.2,9.17
473,Lavrentiya,3,RU,1591809908,80,65.58,-171.0,40.24,3.98
474,Darhan,46,MN,1591809908,73,49.49,105.92,51.03,4.09
475,Korla,23,CN,1591809908,25,41.76,86.15,74.07,12.06
476,Tomari,19,RU,1591809908,82,47.77,142.07,55.09,12.26
477,Chalchihuites,100,MX,1591809908,35,23.48,-103.88,74.08,7.99
478,Palembang,17,ID,1591809778,96,-2.92,104.75,76.05,2.93
479,Waingapu,91,ID,1591809908,79,-9.66,120.26,75.7,10.02
480,Husavik,3,IS,1591809908,48,66.04,-17.34,62.6,13.87
481,Carbonia,20,IT,1591809822,40,39.17,8.52,75.0,12.75
482,Znamenskoye,99,RU,1591809908,60,57.13,73.83,71.31,4.97
483,Mananjary,11,MG,1591809908,80,-21.22,48.33,68.54,7.02
484,Yumen,16,CN,1591809908,23,40.28,97.2,66.31,5.79
485,Teluknaga,20,ID,1591809908,88,-6.1,106.64,84.0,6.93
486,Lakes Entrance,61,AU,1591809908,78,-37.88,147.98,47.3,5.19
487,Dakar,48,SN,1591809805,78,14.69,-17.44,80.6,11.41
488,Kupang,87,ID,1591809908,77,-10.17,123.58,76.15,10.25
489,Chililabombwe,12,ZM,1591809788,53,-12.36,27.82,60.58,2.8
490,Umba,89,RU,1591809909,80,66.69,34.34,49.42,3.06
491,Sazonovo,30,RU,1591809909,66,59.09,35.23,76.17,2.15
492,Huangzhou,6,CN,1591809909,94,30.45,114.8,77.0,6.71
493,Saint Anthony,90,US,1591809909,55,45.02,-93.22,64.99,17.22
494,Vale da Amoreira,30,PT,1591809909,48,39.07,-7.7,82.0,1.01
495,Suleja,31,NG,1591809818,65,9.18,7.18,83.1,5.46
496,Rocha,5,UY,1591809909,52,-34.48,-54.33,65.17,3.98
497,La Ronge,75,CA,1591809909,55,55.1,-105.28,62.6,8.05
498,Pasni,0,PK,1591809909,87,25.26,63.47,84.51,18.66
499,Margate,100,GB,1591809909,63,51.38,1.39,61.0,1.99
500,Samaro,2,PK,1591809909,54,25.28,69.4,91.83,19.75
501,Benghazi,44,LY,1591809909,67,32.12,20.07,74.5,17.05
502,Šibenik,0,HR,1591809909,56,43.73,15.91,71.6,6.93
503,San Jose,40,US,1591809908,46,37.34,-121.89,79.0,3.11
504,Sibolga,81,ID,1591809909,80,1.74,98.78,78.64,2.66
505,Zhangye,39,CN,1591809909,37,38.93,100.45,67.14,8.08
506,Auburn,75,US,1591809635,82,47.31,-122.23,66.0,0.4
507,Guozhen,36,CN,1591809909,68,34.37,107.36,71.89,1.92
508,Eyl,7,SO,1591809909,55,7.98,49.82,86.34,22.55
509,Grajaú,33,BR,1591809910,56,-5.82,-46.14,87.82,5.73
510,Whithorn,20,JM,1591809910,74,18.26,-78.04,86.0,17.22
511,Banda Aceh,99,ID,1591809910,81,5.56,95.32,80.46,6.69
512,Morehead,1,US,1591809910,48,37.27,-87.18,84.99,20.8
513,Ust-Tsilma,100,RU,1591809910,88,65.44,52.15,55.51,7.7
514,Ponta Delgada,40,PT,1591809910,82,37.73,-25.67,64.4,12.75
515,Liuli,36,TZ,1591809910,61,-11.08,34.63,72.59,7.2
516,Corrente,48,BR,1591809910,60,-3.74,-43.34,86.88,2.77
517,Siguiri,71,GN,1591809910,40,11.67,-9.5,92.12,4.05
518,Bereda,61,ES,1591809910,69,43.27,-7.54,69.01,10.0
519,Kenai,40,US,1591809910,87,60.55,-151.26,50.0,1.68
520,Minsk,75,BY,1591809727,54,53.9,27.57,78.8,8.95
521,Carmarthen,100,GB,1591809910,100,51.86,-4.31,55.99,12.75
522,Iracoubo,2,GF,1591809910,72,5.48,-53.2,83.41,7.61
523,Steamboat Springs,75,US,1591809910,47,40.48,-106.83,57.99,5.82
524,Sibu,75,MY,1591809657,88,2.3,111.82,77.0,3.36
525,Havøysund,75,NO,1591809910,75,71.0,24.66,42.8,23.04
526,Pyapon,88,MM,1591809910,81,16.28,95.68,81.54,10.98
527,Lagos,75,NG,1591809911,70,6.58,3.75,87.8,10.29
528,Aleksandrov Gay,82,RU,1591809911,61,50.15,48.57,77.68,9.1
529,Ayan,78,RU,1591809911,92,56.45,138.17,41.07,3.51
530,Andújar,5,ES,1591809911,24,38.04,-4.05,84.99,5.99
531,Akdepe,0,TM,1591809911,21,42.06,59.38,86.0,6.93
532,Saint George,1,US,1591809911,16,37.1,-113.58,82.0,3.36
533,Mayumba,24,GA,1591809911,87,-3.43,10.66,75.74,7.58
534,Nantucket,90,US,1591809911,88,41.28,-70.1,62.6,9.17
535,Mangan,65,IN,1591809911,55,27.52,88.53,74.53,1.61
536,Lyuban',1,BY,1591809911,81,52.8,28.0,75.85,8.55
537,Broome,40,US,1591809911,69,42.25,-75.83,82.99,10.29
538,Krasnoyarskaya,47,RU,1591809911,42,47.65,42.04,77.85,10.4
539,Mahon,20,ES,1591809911,49,39.89,4.27,71.6,11.41
540,Tiverton,40,GB,1591809911,87,50.9,-3.48,57.0,8.05
541,Kytmanovo,71,RU,1591809911,91,53.46,85.45,48.78,3.71
542,Tabou,100,CI,1591809911,92,4.42,-7.35,75.74,7.63
543,Caxito,20,AO,1591809912,69,-8.58,13.66,77.0,11.41
544,Berlevåg,75,NO,1591809912,75,70.86,29.09,44.6,26.4
545,Cape Coast,97,GH,1591809912,80,5.11,-1.25,80.58,13.6
546,Lorengau,100,PG,1591809912,76,-2.02,147.27,81.18,1.59
547,Poum,20,NC,1591809912,78,-20.23,164.02,74.46,20.11
548,Hay River,90,CA,1591809912,100,60.82,-115.8,39.2,6.93
549,Laas,75,IT,1591809912,93,46.62,10.7,55.99,3.36
550,Panabá,39,MX,1591809912,64,21.28,-88.27,88.99,8.9
551,Malindi,20,KE,1591809912,83,-3.22,40.12,80.6,6.93
552,Turaif,0,SA,1591809912,14,31.67,38.66,87.8,13.87
553,Swan Hill,42,AU,1591809912,89,-35.34,143.55,46.67,3.47
554,La Cruz,59,MX,1591809912,77,23.92,-106.9,82.0,5.99
555,Muswellbrook,98,AU,1591809912,95,-32.27,150.9,55.51,1.61
556,Necochea,0,AR,1591809912,58,-38.55,-58.74,60.01,7.0
557,Nizhnyaya Omka,77,RU,1591809912,81,55.43,74.94,67.96,4.92
558,Avera,40,US,1591809912,94,33.19,-82.53,84.2,9.17
